<locations>
	<entry>
		<title>1. Peters Pub - 6pm</title>
		<latitude>53.340936</latitude>
		<longitude>-6.263291</longitude>
		<description><![CDATA["An institution - in the best sense of the word. The platform this pub is built on is the barmen. We're talking real Barmen. Barmen from a time that the Tiger forgot. People who remember you, even if you haven't been in for a year. People for who the smallest nod from your seat triggers a round re-order, delivered to the table. People who are both professional, and friendly." - Courtesy of Yelp.ie]]></description>
	</entry>
	<entry>
		<title>2. Grogans - 6.30pm</title>
		<latitude>53.34211</latitude>
		<longitude>-6.262786</longitude>,
		<description><![CDATA["Let me begin by saying I've drank in Grogans since moving to Dublin a few years back. The company and pints are always decent and I enjoy the fact that they allow art on the walls and sometimes you can smoke in the toilets." - Courtesy of Yelp.ie]]></description>
	</entry>
	<entry>
		<title>3. Dakota - 7pm</title>
		<latitude>53.342545</latitude>
		<longitude>-6.26073</longitude>
		<description><![CDATA["The staff are relatively good, and they generally have enough staff on that you're not waiting long for a drink. Their doormen have always been very polite to me as well which is a plus (not that I look rough or owt, but sometimes theyre just bad-tempered" - Courtesy of Yelp.ie]]></description>
	</entry>
	<entry>
		<title>4. O’Neill’s - 7.30pm</title>
		<latitude>53.344236</latitude>
		<longitude>-6.264042</longitude>
		<description><![CDATA["This O'Neil Pub is indeed a wonderful Irish pub with great Irish food." - Courtesy of Yelp.ie ]]></description>
	</entry>
	<entry>
		<title>5. O'Donoghues, Suffolk Street - 8pm</title>
		<latitude>53.343673</latitude>
		<longitude>-6.259678</longitude>
		<description><![CDATA["Strolling Grafton Street and wanted some lunch- stopped in and found a beautiful cozy pub. Got seats in back past the bar and enjoyed a very good casual lunch and a couple drinks. Decent menu but maybe a little pricey because of the location. We liked the other O'Donoghue's a bit better but still a worthy stop." - Courtesy of Yelp.ie]]></description>
	</entry>
	<entry>
		<title>6. Porterhouse, central - 8.30pm</title>
		<latitude>53.343263</latitude>
		<longitude>-6.259013</longitude>
		<description><![CDATA["with plenty of knowledge and the mircobrewed beers here are fantastic.  I love the Oyster Stout and the Poterhouse Red" - Courtesy of Yelp.ie]]></description>
	</entry>
	<entry>
		<title>7. Bailey - 9pm</title>
		<latitude>53.342251</latitude>
		<longitude>-6.259464</longitude>
		<description><![CDATA["They have heaters outside and blankets to keep warm on the cold..." Courtesy of Yelp.ie]]></description>
	</entry>
	<entry>
		<title>8. The Duke - 9.30pm</title>
		<latitude>53.342161</latitude>
		<longitude>-6.25867</longitude>
		<description><![CDATA["The Dublin Literary Pub Crawl starts at the Duke, in the upstairs..." - Courtesy of Yelp.ie]]></description>
	</entry>
	<entry>
		<title>9. Café en Seine - 10pm</title>
		<latitude>53.3412</latitude>
		<longitude>-6.258477</longitude>
		<description><![CDATA["Café en Seine always reminds me of The Moulin Rouge for some reason." Courtesy of Yelp.ie]]></description>
	</entry>
	<entry>
		<title>10. 37 Dawson Stret - 10.30pm</title>
		<latitude>53.340777</latitude>
		<longitude>-6.258605</longitude>
		<description><![CDATA["This is a cozy location and setting for a drink with friends. The first floor is long and narrow with a whiskey bar in the back. The drinks are strong and a bit pricey. " - Courtesy of Yelp.ie]]></description>
	</entry>
	<entry>
		<title>11. The Dawson Lounge - 11pm</title>
		<latitude>53.34097</latitude>
		<longitude>-6.259216</longitude>
		<description><![CDATA["Great Guiness and worth a visit if you aren't closterphobic." - Courtesy of Yelp.ie]]></description>
	</entry>
	<entry>
		<title>12.  Kehoes - 11.30pm</title>
		<latitude>53.341994</latitude>
		<longitude>-6.258787</longitude>
		<description><![CDATA["Old school bar. Dark carpets, dark wood. Love the decor. Good service & good beer. The ladies room is a gorgeous lounge. Highly recommend this bar" - Courtesy of Yelp.ie]]></description>
	</entry>
</locations>